{
"type": "FeatureCollection",
"name": "Grocery stores",
"crs": { "type": "name", "properties": { "name": "urn:ogc:def:crs:OGC:1.3:CRS84" } },
"features": [
{ "type": "Feature", "properties": { "Name": "M. Rajaram Wholesale & Retails", "description": null, "category": "grocery" }, "geometry": { "type": "Point", "coordinates": [ 78.4712564, 17.3749515 ] } },
{ "type": "Feature", "properties": { "Name": "Mohanlal Manojkumar", "description": null, "category": "grocery" }, "geometry": { "type": "Point", "coordinates": [ 78.4737736, 17.3734121 ] } },
{ "type": "Feature", "properties": { "Name": "B.R.Agencies", "description": null, "category": "grocery" }, "geometry": { "type": "Point", "coordinates": [ 78.471400500000101, 17.3752323 ] } },
{ "type": "Feature", "properties": { "Name": "Hyderabad Kirana Merchants Association", "description": null, "category": "grocery" }, "geometry": { "type": "Point", "coordinates": [ 78.469744199999894, 17.3739171 ] } },
{ "type": "Feature", "properties": { "Name": "M Manoj Kumar Traders", "description": null, "category": "grocery" }, "geometry": { "type": "Point", "coordinates": [ 78.472183, 17.375115 ] } },
{ "type": "Feature", "properties": { "Name": "Balaji Ramdev Trading Co & Besan Merchants", "description": null, "category": "grocery" }, "geometry": { "type": "Point", "coordinates": [ 78.4713872, 17.3734362 ] } },
{ "type": "Feature", "properties": { "Name": "Ravi Fancy Store", "description": null, "category": "grocery" }, "geometry": { "type": "Point", "coordinates": [ 78.475192, 17.376648 ] } },
{ "type": "Feature", "properties": { "Name": "Radhakishan Bankatlal Atal Kirana & Asafoetida", "description": null, "category": "grocery" }, "geometry": { "type": "Point", "coordinates": [ 78.4713068, 17.3760437 ] } },
{ "type": "Feature", "properties": { "Name": "Guru Krupa Enterprises Trading", "description": null, "category": "grocery" }, "geometry": { "type": "Point", "coordinates": [ 78.471458, 17.3761254 ] } },
{ "type": "Feature", "properties": { "Name": "M\/S. Mahendra & Co. Food grains & Pulses Merchant", "description": null, "category": "grocery" }, "geometry": { "type": "Point", "coordinates": [ 78.4715049, 17.376512 ] } },
{ "type": "Feature", "properties": { "Name": "Ballaiah Kirana Shop", "description": null, "category": "grocery" }, "geometry": { "type": "Point", "coordinates": [ 78.463060900000102, 17.376034 ] } },
{ "type": "Feature", "properties": { "Name": "Sapna Kirana Store", "description": null, "category": "grocery" }, "geometry": { "type": "Point", "coordinates": [ 78.475331099999906, 17.379859 ] } },
{ "type": "Feature", "properties": { "Name": "Laxmi Vegetables And Kirana Shop", "description": null, "category": "grocery" }, "geometry": { "type": "Point", "coordinates": [ 78.4646726, 17.3827844 ] } },
{ "type": "Feature", "properties": { "Name": "Maqbool Kirana Shop", "description": null, "category": "grocery" }, "geometry": { "type": "Point", "coordinates": [ 78.4632232, 17.3831076 ] } },
{ "type": "Feature", "properties": { "Name": "Manohar Lal Kirana And General Stores", "description": null, "category": "grocery" }, "geometry": { "type": "Point", "coordinates": [ 78.467772, 17.381707 ] } },
{ "type": "Feature", "properties": { "Name": "Vijay Kumar Grain & Kirana Shop", "description": null, "category": "grocery" }, "geometry": { "type": "Point", "coordinates": [ 78.4798675, 17.3792138 ] } },
{ "type": "Feature", "properties": { "Name": "Yogesh Kirana & General Stores", "description": null, "category": "grocery" }, "geometry": { "type": "Point", "coordinates": [ 78.4709986, 17.3738649 ] } },
{ "type": "Feature", "properties": { "Name": "Prakash Kirana Shop", "description": null, "category": "grocery" }, "geometry": { "type": "Point", "coordinates": [ 78.4693658, 17.3829719 ] } },
{ "type": "Feature", "properties": { "Name": "Dry Fruit & Kirana Shop", "description": null, "category": "grocery" }, "geometry": { "type": "Point", "coordinates": [ 78.4737736, 17.3734121 ] } },
{ "type": "Feature", "properties": { "Name": "Sri Mallkarjuna Kirana Shop", "description": null, "category": "grocery" }, "geometry": { "type": "Point", "coordinates": [ 78.4800917, 17.3816885 ] } },
{ "type": "Feature", "properties": { "Name": "Al-Yaseen Grocery Store", "description": null, "category": "grocery" }, "geometry": { "type": "Point", "coordinates": [ 78.492708, 17.362105 ] } },
{ "type": "Feature", "properties": { "Name": "Kumaran Ghee Stores And Grocery Shop", "description": null, "category": "grocery" }, "geometry": { "type": "Point", "coordinates": [ 78.4429461, 17.393429 ] } },
{ "type": "Feature", "properties": { "Name": "A 1 GROCERY STORE", "description": null, "category": "grocery" }, "geometry": { "type": "Point", "coordinates": [ 78.498225699999907, 17.3701695 ] } },
{ "type": "Feature", "properties": { "Name": "S.F Grocery Store", "description": null, "category": "grocery" }, "geometry": { "type": "Point", "coordinates": [ 78.4535574, 17.3916769 ] } },
{ "type": "Feature", "properties": { "Name": "Ganesh Kirana & General Store", "description": null, "category": "grocery" }, "geometry": { "type": "Point", "coordinates": [ 78.475887999999898, 17.404397 ] } },
{ "type": "Feature", "properties": { "Name": "Deccan Achar", "description": null, "category": "grocery" }, "geometry": { "type": "Point", "coordinates": [ 78.4649302, 17.3913326 ] } },
{ "type": "Feature", "properties": { "Name": "Shahab Kirana Store", "description": null, "category": "grocery" }, "geometry": { "type": "Point", "coordinates": [ 78.498567, 17.369896 ] } },
{ "type": "Feature", "properties": { "Name": "Sana Kirana & General Store", "description": null, "category": "grocery" }, "geometry": { "type": "Point", "coordinates": [ 78.493766, 17.357375 ] } },
{ "type": "Feature", "properties": { "Name": "Goel Trading Co", "description": null, "category": "grocery" }, "geometry": { "type": "Point", "coordinates": [ 78.472956, 17.388842 ] } },
{ "type": "Feature", "properties": { "Name": "Shiv Shakti Kirana and General Store", "description": null, "category": "grocery" }, "geometry": { "type": "Point", "coordinates": [ 78.4568627, 17.3694418 ] } },
{ "type": "Feature", "properties": { "Name": "Yogesh Kirana & General Stores", "description": null, "category": "grocery" }, "geometry": { "type": "Point", "coordinates": [ 78.4709986, 17.3738649 ] } },
{ "type": "Feature", "properties": { "Name": "M Meghraj Dry Fruits & Kirana Merchant", "description": null, "category": "grocery" }, "geometry": { "type": "Point", "coordinates": [ 78.4716672, 17.3747407 ] } },
{ "type": "Feature", "properties": { "Name": "Charminar Masala & Kumkum", "description": null, "category": "grocery" }, "geometry": { "type": "Point", "coordinates": [ 78.472309, 17.374653 ] } }
]
}
